{
  "locations": [
    {
      "name": "Около грушевки",
      "points": [
        {
          "name": "Метро грушевка",
          "lat": 53.8866681,
          "lon": 27.4972558,
          "max": 1000
        }
      ]
    },
    {
      "name": "Уручье",
      "points": [
        {
          "name": "Уручье",
          "lat": 53.945138,
          "lon": 27.687862,
          "max": 1000
        }
      ]
    },
    {
      "name": "Борисовский тракт",
      "points": [
        {
          "name": "Борисовский тракт",
          "lat": 53.938454,
          "lon": 27.666147,
          "max": 1000
        }
      ]
    },
    {
      "name": "Восток",
      "points": [
        {
          "name": "Восток",
          "lat": 53.933693,
          "lon": 27.651213,
          "max": 1000
        }
      ]
    },
    {
      "name": "Московская",
      "points": [
        {
          "name": "Московская",
          "lat": 53.927501,
          "lon": 27.626776,
          "max": 1000
        }
      ]
    },
    {
      "name": "Парк челюскинцев",
      "points": [
        {
          "name": "Парк челюскинцев",
          "lat": 53.923929,
          "lon": 27.613172,
          "max": 1000
        }
      ]
    },
    {
      "name": "Академия наук",
      "points": [
        {
          "name": "Академия наук",
          "lat": 53.921588,
          "lon": 27.599316,
          "max": 1000
        }
      ]
    },
    {
      "name": "Площадь Якуба Коласа",
      "points": [
        {
          "name": "Площадь Якуба Коласа",
          "lat": 53.915685,
          "lon": 27.583952,
          "max": 1000
        }
      ]
    },
    {
      "name": "Площадь Победы",
      "points": [
        {
          "name": "Площадь Победы",
          "lat": 53.909204,
          "lon": 27.576484,
          "max": 1000
        }
      ]
    },
    {
      "name": "Октябрьская",
      "points": [
        {
          "name": "Октябрьская",
          "lat": 53.901222,
          "lon": 27.561121,
          "max": 1000
        }
      ]
    },
    {
      "name": "Площадь Ленина",
      "points": [
        {
          "name": "Площадь Ленина",
          "lat": 53.893364,
          "lon": 27.548546,
          "max": 1000
        }
      ]
    },
    {
      "name": "Институт Культуры",
      "points": [
        {
          "name": "Институт Культуры",
          "lat": 53.885644,
          "lon": 27.540449,
          "max": 1000
        }
      ]
    },
    {
      "name": "Грушевка",
      "points": [
        {
          "name": "Грушевка",
          "lat": 53.886445,
          "lon": 27.515147,
          "max": 1000
        }
      ]
    },
    {
      "name": "Михалово",
      "points": [
        {
          "name": "Михалово",
          "lat": 53.876937,
          "lon": 27.497465,
          "max": 1000
        }
      ]
    },
    {
      "name": "Петровщина",
      "points": [
        {
          "name": "Петровщина",
          "lat": 53.864557,
          "lon": 27.486365,
          "max": 1000
        }
      ]
    },
    {
      "name": "Малиновка",
      "points": [
        {
          "name": "Малиновка",
          "lat": 53.849304,
          "lon": 27.474904,
          "max": 1000
        }
      ]
    }
  ],
  "bedrooms": [
    3
  ]
}
